[

    {
        "adname": "濮阳县",
        "name": "北京烤鸭",
        "location": [115.016369,35.710669],
        "address": "解放大道贵人鸟西侧40米",
        "review_count": 1758
    },
    {
        "adname": "濮阳县",
        "name": "厨乡满天星火锅坊",
        "location": [115.035714,35.702173],
        "address": "国庆路与工业路交叉口向南500米路东",
        "review_count": 1954 
    },
    {
        "adname": "濮阳县",
        "name": "兰花碗",
        "location": [115.028192,35.707085],
        "address": "国庆路与建新路交叉口北行50米路东",
        "review_count": 1040 
    },
    {
        "adname": "濮阳县",
        "name": "花千代秘制烤鱼",
        "location": [115.027892,35.710381],
        "address": "城关镇花园路济适用房向西50米",
        "review_count": 764 
    },
    
    {
        "adname": "濮阳县",
        "name": "8090披萨",
        "location": [115.022598,35.705066],
        "address": "国庆路61号附近",
        "review_count": 1307 
    },
    {
        "adname": "濮阳县",
        "name": "唐朝菌汤火锅",
        "location": [115.033067,35.710752],
        "address": "红旗路上亿广场2号门南侧(红旗路和广场交叉处东南角)",
        "review_count": 1033 
    },
    {
        "adname": "濮阳县",
        "name": "熙顺紫菜包饭",
        "location": [115.028345,35.705948],
        "address": "国庆路与建新路交叉口向东20米路南",
        "review_count": 1009 
    },

    {
        "adname": "华龙区",
        "name": "那时花开咖啡",
        "location": [115.018196,35.760079],
        "address": "开州路256号(中心广场西门)",
        "review_count": 1381 
    },
    {
        "adname": "华龙区",
        "name": "明月麻辣香锅",
        "location": [115.083614,35.778677],
        "address": "五一路与新华街路口向东100米路南,绿景小区(油田资料公司)大门斜对面",
        "review_count": 5957 
    },
    {
        "adname": "华龙区",
        "name": "聚福楼(黄河路店)",
        "location": [115.016808,35.772939],
        "address": "黄河中路276号",
        "review_count": 1492 
    },
    {
        "adname": "华龙区",
        "name": "阿姨奶茶专卖",
        "location": [115.057291,35.771775],
        "address": "安居街咖啡时光西门北20米路东",
        "review_count": 3129 
    },
    {
        "adname": "华龙区",
        "name": "乡巴佬骨头锅",
        "location": [115.014673,35.758027],
        "address": "建设中路与昆吾路交口东100米路南",
        "review_count": 1008 
    },
    {
        "adname": "华龙区",
        "name": "德克士(清华园店)",
        "location": [115.088008,35.766464],
        "address": "黄河东路与天街交叉口东北角一楼",
        "review_count": 7092 
    }
]







